{
"type": "FeatureCollection",
"name": "stations_velhop_strasbourg",
"crs": { "type": "name", "properties": { "name": "urn:ogc:def:crs:OGC:1.3:CRS84" } },
"features": [
{ "type": "Feature", "properties": { "station_id": "245557155", "name": "Bischheim Gare", "short_name": "62000", "capacity": 5 }, "geometry": { "type": "Point", "coordinates": [ 7.742056, 48.611639 ] } },
{ "type": "Feature", "properties": { "station_id": "245557947", "name": "Bischheim Espace Européen", "short_name": "62001", "capacity": 10 }, "geometry": { "type": "Point", "coordinates": [ 7.720056, 48.616361 ] } },
{ "type": "Feature", "properties": { "station_id": "245559919", "name": "Entzheim Gare", "short_name": "62003", "capacity": 10 }, "geometry": { "type": "Point", "coordinates": [ 7.628056, 48.547222 ] } },
{ "type": "Feature", "properties": { "station_id": "245564614", "name": "Geispolsheim Gare", "short_name": "62004", "capacity": 5 }, "geometry": { "type": "Point", "coordinates": [ 7.684944, 48.521222 ] } },
{ "type": "Feature", "properties": { "station_id": "245566026", "name": "Hoenheim Gare", "short_name": "62005", "capacity": 10 }, "geometry": { "type": "Point", "coordinates": [ 7.758833, 48.628333 ] } },
{ "type": "Feature", "properties": { "station_id": "245576518", "name": "Campus d'Illkirch", "short_name": "62007", "capacity": 10 }, "geometry": { "type": "Point", "coordinates": [ 7.732778, 48.528917 ] } },
{ "type": "Feature", "properties": { "station_id": "500084605", "name": "Salle des fêtes", "short_name": "62006", "capacity": 10 }, "geometry": { "type": "Point", "coordinates": [ 7.707583, 48.524194 ] } },
{ "type": "Feature", "properties": { "station_id": "245580402", "name": "La Wantzenau Gare", "short_name": "62008", "capacity": 8 }, "geometry": { "type": "Point", "coordinates": [ 7.824972, 48.664972 ] } },
{ "type": "Feature", "properties": { "station_id": "245581065", "name": "Lingolsheim Gare", "short_name": "62009", "capacity": 6 }, "geometry": { "type": "Point", "coordinates": [ 7.678194, 48.559694 ] } },
{ "type": "Feature", "properties": { "station_id": "245581709", "name": "Mundolsheim Gare", "short_name": "62010", "capacity": 9 }, "geometry": { "type": "Point", "coordinates": [ 7.721483, 48.645404 ] } },
{ "type": "Feature", "properties": { "station_id": "245582029", "name": "Oberhausbergen Mairie", "short_name": "62011", "capacity": 6 }, "geometry": { "type": "Point", "coordinates": [ 7.685699, 48.605593 ] } },
{ "type": "Feature", "properties": { "station_id": "245582844", "name": "Schiltigheim Mairie", "short_name": "62012", "capacity": 20 }, "geometry": { "type": "Point", "coordinates": [ 7.749778, 48.606417 ] } },
{ "type": "Feature", "properties": { "station_id": "245584292", "name": "Strasbourg Gare Centrale", "short_name": "62013", "capacity": 50 }, "geometry": { "type": "Point", "coordinates": [ 7.73475, 48.584306 ] } },
{ "type": "Feature", "properties": { "station_id": "245585106", "name": "Roethig Gare", "short_name": "62014", "capacity": 10 }, "geometry": { "type": "Point", "coordinates": [ 7.694944, 48.563583 ] } },
{ "type": "Feature", "properties": { "station_id": "245585847", "name": "Elsau", "short_name": "62015", "capacity": 10 }, "geometry": { "type": "Point", "coordinates": [ 7.726917, 48.56775 ] } },
{ "type": "Feature", "properties": { "station_id": "245586606", "name": "Rotonde", "short_name": "62016", "capacity": 15 }, "geometry": { "type": "Point", "coordinates": [ 7.725278, 48.591806 ] } },
{ "type": "Feature", "properties": { "station_id": "245587953", "name": "Rives de l Aar", "short_name": "62017", "capacity": 10 }, "geometry": { "type": "Point", "coordinates": [ 7.754306, 48.599972 ] } },
{ "type": "Feature", "properties": { "station_id": "245588745", "name": "Robertsau Boecklin", "short_name": "62018", "capacity": 16 }, "geometry": { "type": "Point", "coordinates": [ 7.778822, 48.598108 ] } },
{ "type": "Feature", "properties": { "station_id": "245589413", "name": "Poteries", "short_name": "62019", "capacity": 10 }, "geometry": { "type": "Point", "coordinates": [ 7.691639, 48.583333 ] } },
{ "type": "Feature", "properties": { "station_id": "245590268", "name": "Citadelle", "short_name": "62037", "capacity": 10 }, "geometry": { "type": "Point", "coordinates": [ 7.779269, 48.570209 ] } },
{ "type": "Feature", "properties": { "station_id": "245591123", "name": "Halles", "short_name": "62021", "capacity": 15 }, "geometry": { "type": "Point", "coordinates": [ 7.740345, 48.588024 ] } },
{ "type": "Feature", "properties": { "station_id": "245591375", "name": "République", "short_name": "62022", "capacity": 10 }, "geometry": { "type": "Point", "coordinates": [ 7.755487, 48.587757 ] } },
{ "type": "Feature", "properties": { "station_id": "245591893", "name": "Austerlitz", "short_name": "62023", "capacity": 32 }, "geometry": { "type": "Point", "coordinates": [ 7.751944, 48.578111 ] } },
{ "type": "Feature", "properties": { "station_id": "245592472", "name": "Parc des Romains", "short_name": "62024", "capacity": 12 }, "geometry": { "type": "Point", "coordinates": [ 7.723453, 48.581129 ] } },
{ "type": "Feature", "properties": { "station_id": "245593080", "name": "Broglie", "short_name": "62025", "capacity": 28 }, "geometry": { "type": "Point", "coordinates": [ 7.749722, 48.585333 ] } },
{ "type": "Feature", "properties": { "station_id": "245594460", "name": "Université", "short_name": "62026", "capacity": 20 }, "geometry": { "type": "Point", "coordinates": [ 7.766611, 48.582028 ] } },
{ "type": "Feature", "properties": { "station_id": "245595123", "name": "Place Arnold", "short_name": "62027", "capacity": 15 }, "geometry": { "type": "Point", "coordinates": [ 7.768694, 48.584528 ] } },
{ "type": "Feature", "properties": { "station_id": "245595689", "name": "Place du Marché", "short_name": "62028", "capacity": 15 }, "geometry": { "type": "Point", "coordinates": [ 7.759222, 48.566222 ] } },
{ "type": "Feature", "properties": { "station_id": "245596275", "name": "Place d'Islande", "short_name": "62029", "capacity": 12 }, "geometry": { "type": "Point", "coordinates": [ 7.776972, 48.580417 ] } },
{ "type": "Feature", "properties": { "station_id": "245597085", "name": "Etoile Bourse", "short_name": "62030", "capacity": 20 }, "geometry": { "type": "Point", "coordinates": [ 7.753833, 48.574417 ] } },
{ "type": "Feature", "properties": { "station_id": "245597920", "name": "Etoile Cinéma", "short_name": "62031", "capacity": 16 }, "geometry": { "type": "Point", "coordinates": [ 7.762444, 48.5735 ] } },
{ "type": "Feature", "properties": { "station_id": "245598687", "name": "Krimmeri Gare", "short_name": "62032", "capacity": 10 }, "geometry": { "type": "Point", "coordinates": [ 7.751889, 48.561806 ] } },
{ "type": "Feature", "properties": { "station_id": "245599491", "name": "Parlement", "short_name": "62033", "capacity": 10 }, "geometry": { "type": "Point", "coordinates": [ 7.766917, 48.5995 ] } },
{ "type": "Feature", "properties": { "station_id": "245602743", "name": "Musée d'Art Moderne", "short_name": "62034", "capacity": 16 }, "geometry": { "type": "Point", "coordinates": [ 7.736, 48.580306 ] } },
{ "type": "Feature", "properties": { "station_id": "245603512", "name": "Place de Bordeaux", "short_name": "62035", "capacity": 8 }, "geometry": { "type": "Point", "coordinates": [ 7.757361, 48.593778 ] } },
{ "type": "Feature", "properties": { "station_id": "499948064", "name": "Rotterdam", "short_name": "62020", "capacity": 10 }, "geometry": { "type": "Point", "coordinates": [ 7.782014, 48.581564 ] } },
{ "type": "Feature", "properties": { "station_id": "499949546", "name": "Jean Jaurès", "short_name": "62002", "capacity": 7 }, "geometry": { "type": "Point", "coordinates": [ 7.772907, 48.567206 ] } },
{ "type": "Feature", "properties": { "station_id": "245604683", "name": "Vendenheim Gare", "short_name": "62036", "capacity": 10 }, "geometry": { "type": "Point", "coordinates": [ 7.718611, 48.665556 ] } },
{ "type": "Feature", "properties": { "station_id": "586719545", "name": "Wolfisheim", "short_name": "62039", "capacity": 10 }, "geometry": { "type": "Point", "coordinates": [ 7.672662, 48.591485 ] } }
]
}
